my_groups:
- Festivals
- Climate change
- Oceans
- Local group Amsterdam
- Oil spill
- Solar energy
- Sustainability
- Save the Arctic
- Deforestation

all_groups:
- Photographers
- Wind energy
- Web editors
- Coal campaign
- Oil spill
- Solar energy
- Sustainability
- Save the Arctic
- Deforestation

my_groups_joined:
  -
    name: "Festivals"
    date: "3 days ago"
  -
    name: "Emlyn Gardens local group"
    date: "11 months and 11 days ago"
  -
    name: "Oceans"
    date: "1 year, 2 months and 4 days ago"
  -
    name: "Local group Amsterdam"
    date: "1 year, 9 months and 2 days ago"
  -
    name: "Save the Arctic"
    date: "1 year, 9 months and 3 days ago"

# shown on home page, groups overview
local_groups_all:
  -
    name: "Emlyn Gardens local group"
    lat: "51.501560"
    lng: "-0.252359"
    subscription_type: "Open"
    link: "./group-home.html"
  -
    name: "Newcastle Greenpeace"
    lat: "54.9732800"
    lng: "-1.6139600"
    subscription_type: "Open"
    link: "./group-home.html"
  -
    name: "Cardiff Greenpeace"
    lat: "51.479806"
    lng: "-3.180831"
    subscription_type: "Open"
    link: "./group-home.html"
  -
    name: "Bristol East Greenpeace"
    lat: "51.458332"
    lng: "-2.582895"
    subscription_type: "Enroll"
    link: "./group-home.html"
  -
    name: "Leeds Greenpeace"
    lat: "53.475145"
    lng: "-1.3237967"
    subscription_type: "Open"
    link: "./group-home.html"
  -
    name: "Nottingham Greenpeace"
    lat: "52.954348"
    lng: "-1.144259"
    subscription_type: "Open"
    link: "./group-home.html"
  -
    name: "Worchester Greenpeace"
    lat: "52.197382"
    lng: "-2.223585"
    subscription_type: "Open"
    link: "./group-home.html"
  -
    name: "Norwich Greenpeace"
    lat: "52.62783"
    lng: "1.29834"
    subscription_type: "Open"
    link: "./group-home.html"
  -
    name: "Cambridge Greenpeace"
    lat: "52.204751"
    lng: "0.135894"
    subscription_type: "Open"
    link: "./group-home.html"
  -
    name: "Salisbury Greenpeace"
    lat: "51.068509"
    lng: "-1.797804"
    subscription_type: "Open"
    link: "./group-home.html"




group_local:
  -
    title: "Emlyn Gardens local group"
    date: "2 May 2015"
    datetime: "2 may 2015 - 10:06 PM"
    image: "people5.jpg"
    author: "Carly Merritt"
    comment_amount: "7"
    tags:
      - Gardening
    group_type: "Local group"
    enrollment_type: "Open"
    mission: "To support Greenpeace UK in their mission to save our beautiful Earth"
    about: "A local group of volunteer activists. We meet every 2nd Wednesday of the month at 8pm in the Nags Head. It's just opposite Rochester station and about 10 minutes walk from Chatham town centre. Join us and you can make a positive difference."
    primary_contact: "Matt Bull"
    secondary_contact: "Tish Tiziana Romagna"
    social_facebook: "https://www.facebook.com/groups/NorthKentGreenpeace/"
    address: "Emlyn Road 20"
    city: "London"
    location_name: "Emlyn Road"
    geocoordinates: "51.501560, -0.252359"

group_skills:
  -
    title: "Greenspreakers"
    date: "2 May 2015"
    datetime: "2 may 2015 - 10:06 PM"
    image: "animals4.jpg"
    author: "Rachel King"
    comment_amount: "7"
    tags:
      - Gardening
    group_type: "Skills-based group"
    enrollment_type: "On invitation"
    mission: "To support Greenpeace UK in their mission to save our beautiful Earth"
    about: "Group for Greenpeace trained Greenspeakers "
    primary_contact: "Rachel King"
    secondary_contact: ""
    social_facebook: ""
